City_ID,City,Lat,Lng,Max Temp,Humidity,Cloudiness,Wind Speed,Country,Date
0,isafjordur,66.0755,-23.124,6.61,87,97,1.13,IS,1723089935
1,utrik,11.2278,169.8474,28.1,78,18,5.78,MH,1723089936
2,mount isa,-20.7333,139.5,26.87,22,0,3.09,AU,1723089936
3,chui,-33.6971,-53.4616,8.48,81,68,2.77,UY,1723089936
4,sandnessjoen,66.0217,12.6316,18.29,79,96,9.3,NO,1723089936
5,dudinka,69.4058,86.1778,14.83,47,10,9.45,RU,1723089936
6,port-aux-francais,-49.35,70.2167,0.41,94,100,11.61,TF,1723089932
7,tommot,58.9564,126.2925,23.17,48,0,1.72,RU,1723089937
8,lakatoro,-16.0999,167.4164,24.75,65,100,6.65,VU,1723089937
9,longyearbyen,78.2186,15.6401,12.91,82,75,0.0,SJ,1723089933
10,ushuaia,-54.8,-68.3,0.81,80,75,1.54,AR,1723089661
11,mokhsogollokh,61.4681,128.9203,21.67,39,4,1.29,RU,1723089937
12,cabo san lucas,22.8909,-109.9124,29.61,72,13,0.89,MX,1723089932
13,sinabang,2.4803,96.3801,27.08,79,100,0.43,ID,1723089937
14,port elizabeth,-33.918,25.5701,14.06,96,0,4.12,ZA,1723089902
15,iqaluit,63.7506,-68.5145,6.85,81,20,1.03,CA,1723089813
16,kuqa,41.7278,82.9364,25.9,33,0,3.85,CN,1723089938
17,waitangi,-43.9535,-176.5597,11.01,76,26,1.79,NZ,1723089870
18,novyy urengoy,66.0833,76.6333,12.53,61,90,6.03,RU,1723089938
19,tafresh,34.692,50.013,29.68,21,4,1.15,IR,1723089938
20,hamilton,39.1834,-84.5333,23.56,83,0,2.57,US,1723089438
21,selma,36.5708,-119.6121,35.19,10,0,8.05,US,1723089938
22,zhicheng,30.2956,111.5047,36.92,43,100,3.9,CN,1723089938
23,arraial do cabo,-22.9661,-42.0278,22.02,86,0,9.77,BR,1723089938
24,taksimo,56.3444,114.8794,25.33,46,100,1.1,RU,1723089939
25,zemio,5.0314,25.1361,20.55,91,100,0.75,CF,1723089939
26,namibe,-15.1961,12.1522,14.54,89,7,1.95,AO,1723089936
27,edinburgh of the seven seas,-37.0676,-12.3116,9.27,54,100,10.62,SH,1723089869
28,saint-louis,16.3333,-15.0,27.8,69,100,3.44,SN,1723089929
29,blackmans bay,-43.0167,147.3167,13.74,62,100,1.79,AU,1723089935
30,nogliki,51.8333,143.1667,12.95,99,100,6.63,RU,1723089939
31,ust-nera,64.5667,143.2,14.3,75,99,1.11,RU,1723089938
32,islamkot,24.6997,70.177,30.02,66,85,8.17,PK,1723089940
33,stanley,54.868,-1.6985,13.17,87,2,3.6,GB,1723089940
34,georgetown,5.4112,100.3354,32.96,52,20,5.14,MY,1723089705
35,hilo,19.7297,-155.09,27.19,81,0,4.12,US,1723089940
36,pisco,-13.7,-76.2167,16.03,82,100,2.06,PE,1723089940
37,al bawiti,28.3492,28.8659,26.99,45,0,2.96,EG,1723089940
38,mananara,-16.1667,49.7667,20.43,77,83,2.47,MG,1723089940
39,sitka,57.0531,-135.33,16.94,77,20,1.54,US,1723089939
40,west island,-12.1568,96.8225,27.99,69,15,6.69,CC,1723089849
41,sirsa,29.5333,75.0167,31.66,64,7,0.74,IN,1723089941
42,thompson,55.7435,-97.8558,12.09,76,75,2.57,CA,1723089941
43,leava,-14.3,-178.1667,25.41,66,75,9.4,WF,1723089941
44,anadyr,64.75,177.4833,8.28,81,40,5.0,RU,1723089672
45,pohang,36.0322,129.365,34.63,47,96,2.83,KR,1723089919
46,sena madureira,-9.0656,-68.6569,24.11,73,33,0.51,BR,1723089941
47,san patricio,28.017,-97.5169,29.94,65,0,5.6,US,1723089941
48,polyarnyy,69.1989,33.4478,13.86,61,60,3.77,RU,1723089941
49,namie,37.4833,141.0,32.62,77,67,0.45,JP,1723089941
50,obubra,6.0752,8.329,21.91,98,100,1.83,NG,1723089942
51,victorica,-36.2151,-65.4359,4.27,79,100,8.86,AR,1723089942
52,ilulissat,69.2167,-51.1,5.01,93,100,1.54,GL,1723089934
53,khovd,48.0056,91.6419,22.8,30,100,2.08,MN,1723089942
54,bethel,41.3712,-73.414,18.34,90,100,0.45,US,1723089934
55,grytviken,-54.2811,-36.5092,-10.07,75,19,4.4,GS,1723089932
56,port mathurin,-19.6833,63.4167,22.32,75,16,5.77,MU,1723089940
57,zaozersk,69.4005,32.4476,15.35,57,84,2.76,RU,1723089937
58,puerto ayora,-0.7393,-90.3518,19.19,98,85,2.24,EC,1723089932
59,kodiak,57.79,-152.4072,13.73,88,40,0.0,US,1723089941
60,puerto natales,-51.7236,-72.4875,0.58,81,100,1.64,CL,1723089942
61,adamstown,-25.066,-130.1015,19.59,67,95,3.24,PN,1723089933
62,sainte-anne-des-monts,49.124,-66.4924,14.93,58,35,3.09,CA,1723089943
63,naze,28.3667,129.4833,32.51,67,64,1.15,JP,1723089943
64,aasiaat,68.7098,-52.8699,3.4,95,99,3.29,GL,1723089943
65,brisas de zicatela,15.8369,-97.0419,28.01,82,100,4.18,MX,1723089943
66,madimba,-10.4,40.3333,20.62,94,20,5.14,TZ,1723089943
67,weno,7.4515,151.8468,31.97,66,75,2.06,FM,1723089944
68,puerto vilelas,-27.5141,-58.9391,12.29,83,0,4.12,AR,1723089944
69,gbadolite,4.2833,21.0167,20.26,97,86,1.14,CD,1723089944
70,cartagena,10.3997,-75.5144,26.79,89,20,2.06,CO,1723089607
71,lorengau,-2.0226,147.2712,29.77,69,23,4.44,PG,1723089944
72,grand gaube,-20.0064,57.6608,22.22,78,0,0.45,MU,1723089944
73,opuwo,-18.0607,13.84,16.29,34,0,2.25,NA,1723089945
74,neftekamsk,56.092,54.2703,17.14,87,100,4.1,RU,1723089945
75,klaksvik,62.2266,-6.589,9.51,91,96,4.58,FO,1723089945
76,pokaran,26.9167,71.9167,28.76,66,84,7.01,IN,1723089945
77,kapa'a,22.0752,-159.319,27.18,78,40,6.17,US,1723089944
78,north shore,-36.8,174.75,15.22,84,90,5.36,NZ,1723089946
79,valenca do piaui,-6.4075,-41.7456,22.06,51,3,2.59,BR,1723089684
80,howrah,22.5892,88.3103,30.0,84,75,4.12,IN,1723089946
81,invercargill,-46.4,168.35,10.57,73,67,2.68,NZ,1723089932
82,wynyard,-41.0,145.7167,12.3,77,100,6.6,AU,1723089946
83,orangeburg,33.4918,-80.8557,24.98,80,100,2.68,US,1723089946
84,baoding,38.8511,115.4903,34.68,37,0,0.62,CN,1723089947
85,bredasdorp,-34.5322,20.0403,8.1,95,0,2.46,ZA,1723089937
86,robertsport,6.7533,-11.3686,24.77,80,100,5.49,LR,1723089947
87,labytnangi,66.6572,66.4183,13.0,60,11,0.34,RU,1723089947
88,juan griego,11.0817,-63.9655,25.86,90,5,2.66,VE,1723089947
89,hawaiian paradise park,19.5933,-154.9731,27.07,75,0,4.12,US,1723089945
90,puerto baquerizo moreno,-0.9,-89.6,19.77,78,88,5.96,EC,1723089947
91,wailua homesteads,22.0669,-159.378,26.44,81,40,6.17,US,1723089931
92,scarborough,54.2797,-0.4044,14.25,87,42,1.79,GB,1723089830
93,rio do sul,-27.2142,-49.6431,19.66,88,100,1.48,BR,1723089948
94,fort st. john,56.2499,-120.8529,20.94,52,20,4.63,CA,1723089850
95,albany,42.6001,-73.9662,17.58,77,1,1.4,US,1723089645
96,antsiranana,-12.2787,49.2917,21.42,64,20,7.2,MG,1723089948
97,nar'yan-mar,67.6713,53.087,11.24,62,0,2.21,RU,1723089945
98,whitehorse,60.7161,-135.0538,26.43,34,0,6.17,CA,1723089855
99,nuuk,64.1835,-51.7216,4.34,100,100,2.57,GL,1723089948
100,vorkuta,67.5,64.0,12.48,56,24,1.37,RU,1723089948
101,nizhneudinsk,54.9076,99.0276,14.96,97,100,1.37,RU,1723089948
102,ribeira grande,38.5167,-28.7,21.54,84,0,3.13,PT,1723089931
103,bilibino,68.0546,166.4372,14.76,37,29,5.41,RU,1723089933
104,palikir - national government center,6.9248,158.1611,31.47,70,75,5.14,FM,1723089949
105,talnakh,69.4865,88.3972,16.91,49,4,3.39,RU,1723089943
106,yellowknife,62.456,-114.3525,20.29,40,20,4.12,CA,1723089942
107,qaqortoq,60.7167,-46.0333,7.08,91,100,2.04,GL,1723089944
108,turpan,42.9333,89.1667,28.54,43,98,0.79,CN,1723089949
109,port alfred,-33.5906,26.891,14.67,75,0,4.16,ZA,1723089933
110,shihezi,44.3,86.0333,33.56,17,100,5.91,CN,1723089949
111,culiacan,24.7994,-107.3897,28.82,79,20,3.09,MX,1723089949
112,jindrichuv hradec,49.144,15.003,18.82,99,100,1.34,CZ,1723089950
113,cootamundra,-34.65,148.0333,15.53,52,87,3.62,AU,1723089951
114,olonkinbyen,70.9221,-8.7187,5.31,100,100,3.23,SJ,1723089933
115,tiksi,71.6872,128.8694,5.81,96,100,0.45,RU,1723089938
116,badger,64.8,-147.5333,23.14,66,75,2.57,US,1723089932
117,remire-montjoly,4.9167,-52.2667,26.02,94,40,1.03,GF,1723089951
118,happy valley-goose bay,53.3168,-60.3315,12.17,94,75,3.09,CA,1723089939
119,kirakira,-10.4544,161.9205,27.89,72,100,6.04,SB,1723089951
120,dumai,1.6833,101.45,27.88,82,100,0.92,ID,1723089951
121,broken hill,-31.95,141.4333,16.13,42,100,8.34,AU,1723089952
122,katsuura,35.1333,140.3,27.65,83,25,3.99,JP,1723089938
123,udachny,66.4167,112.4,22.56,50,100,7.4,RU,1723089944
124,port lincoln,-34.7333,135.8667,16.2,69,85,5.94,AU,1723089952
125,college,64.8569,-147.8028,23.18,61,75,2.57,US,1723089931
126,otofuke,42.9917,143.2003,24.53,88,75,0.51,JP,1723089952
127,ketchikan,55.3422,-131.6461,21.26,52,0,1.54,US,1723089952
128,yakeshi,49.2833,120.7333,23.37,44,100,3.91,CN,1723089953
129,peniche,39.3558,-9.3811,20.11,91,10,8.18,PT,1723089949
130,filadelfia,39.9523,-75.1638,20.72,94,100,3.13,US,1723089721
131,lihue,21.9789,-159.3672,26.77,72,40,6.17,US,1723089952
132,rabo de peixe,37.8,-25.5833,21.73,94,40,2.57,PT,1723089953
133,dunedin,-45.8742,170.5036,8.78,83,100,1.34,NZ,1723089678
134,guerrero negro,27.9769,-114.0611,22.71,76,0,5.61,MX,1723089936
135,selfoss,63.9331,-20.9971,8.91,94,5,1.69,IS,1723089947
136,jamestown,42.097,-79.2353,19.8,88,100,4.12,US,1723089649
137,ashland,40.8167,-82.2665,20.98,94,0,2.75,US,1723089656
138,horta,38.5333,-28.6333,21.12,84,0,3.13,PT,1723089954
139,eraan,9.0629,117.7016,30.76,67,100,3.09,PH,1723089954
140,okhtyrka,50.3104,34.8988,18.39,66,76,2.88,UA,1723089954
141,saipan,15.1355,145.701,32.39,70,40,3.09,MP,1723089941
142,tazacorte,28.629,-17.9293,22.54,80,100,5.66,ES,1723089954
143,minas de marcona,-15.2119,-75.1103,9.52,91,88,6.39,PE,1723089947
144,tazovsky,67.4667,78.7,10.66,65,56,5.48,RU,1723089740
145,lautoka,-17.6167,177.4667,25.92,50,40,5.66,FJ,1723089955
146,kazan,55.7887,49.1221,18.34,80,22,2.41,RU,1723089820
147,kavaratti,10.5669,72.642,27.08,83,100,5.69,IN,1723089940
148,jose panganiban,14.2906,122.6917,33.8,55,70,3.95,PH,1723089955
149,amvrosiyivka,47.7935,38.4777,20.49,61,6,4.28,UA,1723089955
150,petropavlovsk-kamchatsky,53.0452,158.6483,27.33,44,75,7.0,RU,1723089952
151,al quwayrah,29.8004,35.3116,25.0,44,0,1.01,JO,1723089955
152,isla mujeres,21.2311,-86.731,25.09,78,43,1.12,MX,1723089955
153,rohru,31.2167,77.75,20.44,90,100,0.98,IN,1723089956
154,rikaze,29.25,88.8833,16.87,45,100,1.1,CN,1723089956
155,machico,32.7,-16.7667,23.35,73,40,6.17,PT,1723089956
156,klyuchi,52.2667,79.1667,23.69,63,99,2.83,RU,1723089934
157,polevskoy,56.4422,60.1878,11.68,91,71,3.24,RU,1723089956
158,lyantor,61.6195,72.1555,12.38,63,100,5.63,RU,1723089956
159,arkhangel'sk,64.5401,40.5433,12.06,94,0,2.0,RU,1723089660
160,altay,47.8667,88.1167,25.91,28,1,3.53,CN,1723089956
161,florenville,49.6998,5.3074,14.73,77,100,0.05,BE,1723089956
162,plaza huincul,-38.926,-69.2086,0.08,10,10,0.71,AR,1723089957
163,turbat,26.0023,63.044,28.65,70,100,1.07,PK,1723089957
164,vilyuysk,63.7553,121.6247,20.88,40,8,0.5,RU,1723089938
165,kristiansund,63.1115,7.732,14.36,93,40,3.09,NO,1723089957
166,avarua,-21.2078,-159.775,23.03,60,13,3.09,CK,1723089937
167,bozeman,45.6796,-111.0386,16.27,75,0,5.14,US,1723089957
168,fort bragg,35.139,-79.006,24.91,96,20,8.23,US,1723089957
169,kingston,17.997,-76.7936,29.53,74,20,4.63,JM,1723089857
170,bubaque,11.2833,-15.8333,26.26,83,100,7.47,GW,1723089945
171,alice springs,-23.7,133.8833,25.75,24,0,5.66,AU,1723089957
172,midvagur,62.0511,-7.1939,9.46,100,100,1.54,FO,1723089958
173,okhotsk,59.3833,143.3,18.77,65,9,1.42,RU,1723089815
174,el idrissia,34.4454,2.5275,25.36,30,15,3.05,DZ,1723089958
175,antsohihy,-14.8796,47.9875,18.88,60,7,2.93,MG,1723089958
176,katabu,-4.9333,122.5167,31.25,51,32,4.27,ID,1723089958
177,afaahiti,-17.75,-149.2833,25.93,81,5,7.4,PF,1723089935
178,nadi,-17.8,177.4167,26.0,50,40,5.66,FJ,1723089958
179,xilin hot,43.9667,116.0333,29.98,29,98,1.92,CN,1723089958
180,usinsk,65.9939,57.5281,14.67,51,7,3.76,RU,1723089959
181,papatowai,-46.5619,169.4708,8.71,72,49,3.68,NZ,1723089898
182,zaragoza,41.6561,-0.8773,23.9,64,0,6.17,ES,1723089727
183,fortuna,40.5982,-124.1573,14.4,93,100,0.0,US,1723089959
184,serhetabat,35.2799,62.3438,31.02,14,0,1.68,TM,1723089959
185,mount pearl,47.5166,-52.7813,16.19,89,0,8.75,CA,1723089814
186,el granada,37.5027,-122.4694,19.51,88,40,6.69,US,1723089959
187,deqen,29.9618,90.7188,14.97,57,100,1.87,CN,1723089959
188,muynoq,43.7683,59.0214,35.39,17,83,5.32,UZ,1723089960
189,ta`u,-14.2336,-169.5144,25.14,76,84,9.95,AS,1723089960
190,janakpur,26.7183,85.9065,29.6,73,100,3.93,NP,1723089960
191,shushtar,32.0455,48.8567,38.09,12,5,0.96,IR,1723089960
192,banda aceh,5.5577,95.3222,30.12,64,96,2.21,ID,1723089815
193,mersa matruh,31.3525,27.2453,25.11,83,0,2.06,EG,1723089960
194,carnarvon,-24.8667,113.6333,21.13,55,3,3.39,AU,1723089959
195,nadvoitsy,63.8667,34.3167,11.62,70,17,2.01,RU,1723089961
196,margaret river,-33.95,115.0667,15.72,64,100,5.87,AU,1723089818
197,masuguru,-11.3667,38.4167,17.73,88,6,1.18,TZ,1723089961
198,jayapura,-2.5333,140.7,29.66,74,81,3.35,ID,1723089961
199,jaumave,23.4167,-99.3833,22.37,93,80,0.8,MX,1723089961
200,poshekhon'ye,58.4993,39.1353,14.0,95,100,3.0,RU,1723089961
201,kotel'nich,58.3089,48.348,15.0,95,100,2.87,RU,1723089961
202,san felipe,10.3399,-68.7425,22.08,99,61,0.72,VE,1723089962
203,st. john's,47.5649,-52.7093,16.66,89,0,8.75,CA,1723089916
204,ixtapa,20.7,-105.2,28.57,84,40,1.03,MX,1723089962
205,ascension,30.2169,-90.9001,28.38,86,0,0.0,US,1723089962
206,howard springs,-12.497,131.047,32.95,36,80,4.32,AU,1723089963
207,garachico,28.7781,-17.7646,21.06,64,100,5.66,ES,1723089963
208,jefferson city,38.5767,-92.1735,20.61,83,0,2.68,US,1723089801
209,itoigawa,37.0333,137.85,29.45,84,63,2.69,JP,1723089963
210,ishigaki,24.3448,124.1572,27.07,94,75,3.6,JP,1723089964
211,luau,-10.7073,22.2247,15.37,26,67,1.6,AO,1723089964
212,hermanus,-34.4187,19.2345,11.29,86,0,3.14,ZA,1723089964
213,kone,-21.0595,164.8658,22.35,60,95,3.22,NC,1723089964
214,ancud,-41.8697,-73.8203,4.21,89,5,1.62,CL,1723089964
215,azul,-36.777,-59.8585,5.65,93,100,8.99,AR,1723089964
216,punta arenas,-53.15,-70.9167,2.06,80,100,5.14,CL,1723089938
217,tughyl,47.7252,84.2063,23.5,52,62,3.54,KZ,1723089964
218,sorong,-0.8833,131.25,29.55,68,64,5.57,ID,1723089845
219,yuzhno-kurilsk,44.0306,145.8556,18.4,99,100,2.38,RU,1723089965
220,la'ie,21.6477,-157.9253,28.98,75,3,2.24,US,1723089951
221,keflavik,64.0049,-22.5624,7.95,100,0,2.06,IS,1723089941
222,egilsstadir,65.2653,-14.3948,6.95,93,100,2.06,IS,1723089965
223,nigel,-26.4314,28.4771,12.44,42,0,2.19,ZA,1723089965
224,atafu village,-8.5421,-172.5159,28.31,70,16,8.95,TK,1723089938
225,vorgashor,67.5833,63.95,12.36,55,19,1.52,RU,1723089950
226,lebu,-37.6167,-73.65,5.39,89,6,1.97,CL,1723089902
227,qarawul,37.2202,68.7804,34.74,13,0,0.59,AF,1723089966
228,constantia,44.1833,28.65,18.17,72,4,1.29,RO,1723089946
229,juhaynah,26.6732,31.4976,28.18,29,1,2.17,EG,1723089966
230,alotau,-10.3069,150.4462,27.34,74,86,2.97,PG,1723089953
231,maceio,-9.6658,-35.7353,20.69,94,40,2.06,BR,1723089873
232,mount gambier,-37.8333,140.7667,12.87,66,100,5.31,AU,1723089953
233,fale old settlement,-9.3852,-171.2468,27.84,74,90,8.94,TK,1723089956
234,mountain home,43.133,-115.6912,25.01,20,99,1.34,US,1723089967
235,vernon,50.2581,-119.2691,26.2,38,21,0.51,CA,1723089967
236,zhengzhou,34.7578,113.6486,28.27,72,99,2.86,CN,1723089967
237,sakakah,29.9697,40.2064,23.76,18,0,2.41,SA,1723089967
238,quang ngai,15.1167,108.8,37.0,41,8,1.73,VN,1723089942
239,butterworth,5.3991,100.3638,33.02,52,20,5.14,MY,1723089967
240,penne,42.4538,13.9299,24.26,77,15,1.55,IT,1723089967
241,kiunga,-6.1219,141.2906,29.38,67,90,2.41,PG,1723089967
242,abadiania,-16.2042,-48.7069,16.51,47,0,0.5,BR,1723089968
243,dampit,-8.2116,112.7493,27.91,60,46,4.07,ID,1723089968
244,hasaki,35.7333,140.8333,32.38,73,28,4.47,JP,1723089969
245,crane,31.3974,-102.3501,33.72,21,7,2.5,US,1723089867
246,bikenibeu village,1.3673,173.1241,30.98,66,75,1.03,KI,1723089931
247,new norfolk,-42.7826,147.0587,14.4,56,100,4.01,AU,1723089946
248,newman,37.3138,-121.0208,32.99,40,0,1.34,US,1723089963
249,moramanga,-18.9333,48.2,11.99,94,29,0.63,MG,1723089969
250,el alto,-4.2714,-81.2147,17.53,77,3,8.37,PE,1723089944
251,saiki,32.95,131.9,32.25,59,0,3.45,JP,1723089853
252,khandyga,62.6667,135.6,20.22,52,6,0.93,RU,1723089970
253,papao,-17.75,-149.55,26.82,78,0,7.39,PF,1723089947
254,itamaraca,-7.7478,-34.8256,25.03,70,96,4.07,BR,1723089970
255,uturoa,-16.7333,-151.4333,25.88,84,39,4.57,PF,1723089970
256,cova figueira,14.8905,-24.2934,19.21,86,61,5.18,CV,1723089970
257,belomorsk,64.5232,34.7668,11.24,82,17,2.46,RU,1723089970
258,mejit,10.2753,170.8646,27.87,76,94,3.89,MH,1723089970
259,geraldton,-28.7667,114.6,20.23,73,75,1.54,AU,1723089939
260,daru,-9.0763,143.2092,26.0,80,97,6.39,PG,1723089933
261,inari,68.906,27.0288,9.11,56,2,2.22,FI,1723089971
262,nouadhibou,20.931,-17.0347,20.99,88,53,2.06,MR,1723089969
263,mammoth lakes,37.6485,-118.9721,23.4,22,0,5.66,US,1723089971
264,zahedan,29.4963,60.8629,27.95,14,0,2.06,IR,1723089916
265,pacific grove,36.6177,-121.9166,15.94,93,100,2.57,US,1723089961
266,hailar,49.2,119.7,23.85,43,99,2.79,CN,1723089971
267,comodoro rivadavia,-45.8667,-67.5,4.92,75,0,4.12,AR,1723089676
268,christchurch,-43.5333,172.6333,9.11,92,100,7.72,NZ,1723089726
269,fang,19.9169,99.2145,23.82,97,100,0.98,TH,1723089972
270,port isabel,26.0734,-97.2086,29.45,84,0,3.6,US,1723089900
271,choibalsan,48.0667,114.5,25.57,46,100,2.02,MN,1723089972
272,saudarkrokur,65.7461,-19.6394,7.43,90,100,1.61,IS,1723089972
273,juneau,58.3019,-134.4197,19.12,63,0,3.6,US,1723089972
274,saint-joseph,-21.3667,55.6167,19.71,75,12,2.95,RE,1723089972
275,hauterive,46.0901,3.4459,19.42,91,85,1.45,FR,1723089972
276,zhoucheng,35.9122,116.3117,31.26,70,48,0.76,CN,1723089972
277,tobelo,1.7284,128.0095,28.82,72,4,2.93,ID,1723089961
278,bhalwal,32.272,72.9043,30.36,73,84,4.84,PK,1723089973
279,koyulhisar,40.3025,37.8311,15.5,85,58,1.0,TR,1723089973
280,panjakent,39.4952,67.6093,30.79,21,0,1.27,TJ,1723089973
281,santa quiteria,-4.3319,-40.1567,22.07,77,4,1.32,BR,1723089973
282,vilyuchinsk,52.9306,158.4028,28.15,78,27,5.28,RU,1723089936
283,holualoa,19.6228,-155.9522,25.91,85,75,3.6,US,1723089973
284,gadzhiyevo,69.2551,33.3362,14.48,61,72,3.51,RU,1723089973
285,limassol,34.675,33.0333,25.1,88,0,1.03,CY,1723089973
286,malango,-2.9627,119.9001,27.14,58,38,2.11,ID,1723089958
287,kitgum,3.2783,32.8867,18.26,92,57,0.59,UG,1723089974
288,san antonio de pale,-1.4014,5.6325,22.64,82,100,5.21,GQ,1723089937
289,hithadhoo,-0.6,73.0833,27.64,75,100,4.25,MV,1723089941
290,bardai,11.65,7.2333,20.87,96,99,4.77,NG,1723089974
291,two rivers,44.1539,-87.5693,19.1,86,0,0.0,US,1723089974
292,northam,51.0333,-4.2167,17.03,93,45,5.48,GB,1723089974
293,luderitz,-26.6481,15.1594,9.87,82,0,2.84,NA,1723089940
294,necochea,-38.5473,-58.7368,6.3,94,100,12.01,AR,1723089856
295,manacapuru,-3.2997,-60.6206,26.45,57,1,1.86,BR,1723089958
296,kusong,39.9811,125.2447,30.38,66,24,1.97,KP,1723089975
297,yarmouth,41.7057,-70.2286,17.76,91,75,0.89,US,1723089930
298,bel ombre,-4.6167,55.4167,25.91,89,40,5.14,SC,1723089975
299,bokovskaya,49.229,41.8306,22.57,49,22,2.04,RU,1723089975
300,iskateley,67.6803,53.1512,11.22,62,0,2.2,RU,1723089942
301,port saint john's,-31.6229,29.5448,17.9,28,0,3.22,ZA,1723089976
302,fortaleza,-3.7227,-38.5247,26.79,78,75,5.14,BR,1723089797
303,la asuncion,11.0333,-63.8628,26.1,87,5,3.64,VE,1723089976
304,alaghsas,17.0187,8.0168,27.32,59,39,2.49,NE,1723089955
305,ts'q'alt'ubo,42.3413,42.5976,21.36,76,1,1.43,GE,1723089976
306,alindao,5.0267,21.2088,19.75,97,65,0.84,CF,1723089976
307,muli,2.9167,73.5667,26.46,83,100,6.18,MV,1723089976
308,lompoc,34.6391,-120.4579,19.83,82,0,2.06,US,1723089964
309,watsa,3.0372,29.5355,16.47,99,74,0.91,CD,1723089977
310,camayenne,9.535,-13.6878,25.05,94,75,3.09,GN,1723089977
311,nemuro,43.3236,145.575,17.18,100,100,3.09,JP,1723089955
312,vila franca do campo,37.7167,-25.4333,22.23,88,39,2.79,PT,1723089947
313,jackson,42.4165,-122.8345,28.53,24,100,2.57,US,1723089977
314,tandalti,13.0167,31.8667,26.14,74,94,3.78,SD,1723089977
315,starkville,33.4504,-88.8184,24.13,83,100,2.06,US,1723089977
316,east london,-33.0153,27.9116,9.52,71,0,1.54,ZA,1723089955
317,san clemente,33.427,-117.612,23.05,90,14,1.34,US,1723089741
318,pontes e lacerda,-15.2261,-59.3353,26.34,38,89,1.0,BR,1723089700
319,las tablas,7.7667,-80.2833,25.1,99,100,1.2,PA,1723089978
320,amble,55.3333,-1.5833,13.42,88,0,4.63,GB,1723089978
321,concepcion,-36.827,-73.0498,5.89,87,0,2.06,CL,1723089571
322,turkmenbasy,40.0222,52.9552,25.43,69,0,8.23,TM,1723089978
323,bairnsdale,-37.8333,147.6167,17.81,44,100,0.89,AU,1723089946
324,coquimbo,-29.9533,-71.3436,11.85,72,100,0.51,CL,1723089945
325,kismayo,-0.3582,42.5454,24.8,76,54,6.83,SO,1723089979
326,carmo do paranaiba,-19.0008,-46.3161,15.06,55,1,0.19,BR,1723089979
327,anqing,30.5092,117.0506,37.38,47,0,3.85,CN,1723089979
328,reggane,26.7158,0.1714,34.56,12,2,7.36,DZ,1723089933
329,flying fish cove,-10.4217,105.6791,26.82,83,100,7.72,CX,1723089938
330,bamboo flat,11.7,92.7167,30.05,74,75,3.09,IN,1723089853
331,cromer,52.9312,1.2989,15.08,89,35,5.81,GB,1723089979
332,mondariz,42.2311,-8.4584,19.19,88,0,0.51,ES,1723089979
333,tura,25.5198,90.2201,28.6,77,61,3.04,IN,1723089966
334,alipur,29.3846,70.9116,34.75,51,0,5.01,PK,1723089979
335,ardmore,34.1743,-97.1436,29.3,69,0,0.0,US,1723089980
336,diano marina,43.9103,8.0793,25.87,88,20,0.45,IT,1723089980
337,auki,-8.7676,160.7034,26.89,86,100,2.16,SB,1723089968
338,taibet,33.0829,6.3998,29.88,31,0,4.52,DZ,1723089980
339,undurkhaan,47.3194,110.6556,23.27,62,100,3.37,MN,1723089980
340,pandan,14.0453,124.1694,32.1,64,18,4.02,PH,1723089980
341,portland,45.5234,-122.6762,27.04,54,0,3.6,US,1723089952
342,ugoofaaru,5.6667,73.0,28.18,75,13,7.29,MV,1723089980
343,sao luis de montes belos,-16.525,-50.3722,19.68,42,0,0.38,BR,1723089762
344,baley,51.6,116.6333,26.23,30,48,1.84,RU,1723089981
345,whitby,54.4877,-0.615,15.17,86,26,4.69,GB,1723089981
346,cannonvale,-20.2833,148.7,23.66,73,35,7.33,AU,1723089981
347,valparaiso,-33.0393,-71.6273,6.8,87,0,1.54,CL,1723089967
348,fort mcmurray,56.7268,-111.381,18.77,45,0,2.06,CA,1723089981
349,bennett springs,-31.8581,115.9423,19.05,72,75,5.14,AU,1723089982
350,benguela,-12.5763,13.4055,19.71,85,57,3.09,AO,1723089982
351,santa cruz,-17.8,-63.1667,21.7,100,40,2.57,BO,1723089827
352,al kharijah,25.4514,30.5464,30.89,23,1,2.29,EG,1723089982
353,kapuskasing,49.4169,-82.4331,17.05,72,100,1.54,CA,1723089733
354,chonchi,-42.6128,-73.8092,3.56,97,20,0.53,CL,1723089735
355,masterton,-40.9597,175.6575,10.61,89,100,3.77,NZ,1723089978
356,lianshan,40.7643,120.8533,30.33,68,49,2.12,CN,1723089982
357,litayan,7.3358,124.0347,27.74,79,100,2.72,PH,1723089982
358,severo-yeniseyskiy,60.3725,93.0408,16.81,76,99,1.71,RU,1723089983
359,saint-philippe,-21.3585,55.7679,19.77,80,26,2.68,RE,1723089937
360,goundam,16.4145,-3.6708,30.84,60,100,10.06,ML,1723089983
361,kingscliff,-28.2667,153.5667,19.97,63,100,4.63,AU,1723089983
362,nuku'alofa,-21.1333,-175.2,22.19,73,40,6.69,TO,1723089848
363,fayzabad,37.1166,70.58,29.1,20,0,0.8,AF,1723089983
364,bazarak,35.3129,69.5152,23.04,13,0,1.24,AF,1723089983
365,fallon,39.4735,-118.7774,31.07,23,34,7.67,US,1723089984
366,faya-largeau,17.9257,19.1043,31.6,50,100,4.72,TD,1723089984
367,labrador city,52.9463,-66.9114,7.95,93,75,3.6,CA,1723089939
368,baiyin,36.5583,104.2081,20.91,81,100,2.34,CN,1723089984
369,takestan,36.0696,49.6959,21.07,59,25,4.81,IR,1723089984
370,vadso,70.0744,29.7487,16.09,67,0,0.0,NO,1723089953
371,chicoana,-25.1009,-65.5331,8.03,67,86,2.24,AR,1723089984
372,waingapu,-9.6567,120.2641,29.96,57,53,8.48,ID,1723089947
373,bulgan,48.8125,103.5347,19.63,73,100,2.29,MN,1723089985
374,la passe,45.5549,-0.8967,16.1,84,88,3.05,FR,1723089950
375,codrington,-38.2667,141.9667,12.96,70,100,8.55,AU,1723089967
376,tambura,5.6,27.4667,20.09,96,99,0.9,SS,1723089985
377,al jawf,29.5,38.75,24.88,39,1,3.15,SA,1723089985
378,loshnitsa,54.2789,28.7639,13.74,93,5,2.55,BY,1723089985
379,arar,30.9753,41.0381,28.01,12,0,5.14,SA,1723089985
380,tuzha,57.6062,47.936,15.49,94,99,2.86,RU,1723089985
381,koryazhma,61.3143,47.1691,12.92,87,98,2.49,RU,1723089902
382,grand falls-windsor,48.9332,-55.6649,11.95,82,3,3.44,CA,1723089671
383,usogorsk,63.4106,48.6872,14.98,51,8,2.51,RU,1723089953
384,myitkyina,25.3833,97.4,24.87,97,100,0.31,MM,1723089986
385,manokwari,-0.8667,134.0833,29.13,67,32,3.83,ID,1723089986
386,lake city,30.1897,-82.6393,27.14,94,0,2.57,US,1723089986
387,i-n-salah,27.1935,2.4607,31.65,15,0,6.41,DZ,1723089986
388,kerikeri,-35.2268,173.9474,14.95,88,88,0.89,NZ,1723089959
389,enewetak,11.3474,162.3373,28.89,75,82,4.73,MH,1723089932
390,walvis bay,-22.9575,14.5053,11.72,87,3,2.26,NA,1723089986
391,mikomeseng,2.1361,10.6132,20.13,95,99,0.61,GQ,1723089987
392,palora,-1.7,-77.9333,18.93,95,98,1.52,EC,1723089987
393,salinopolis,-0.6136,-47.3561,26.06,83,61,4.25,BR,1723089973
394,igarka,67.4667,86.5833,15.87,54,1,3.71,RU,1723089987
395,yaren,-0.5472,166.916,28.7,71,56,3.41,NR,1723089987
396,valdivia,-39.8142,-73.2459,3.05,98,0,0.91,CL,1723089932
397,andergrove,-21.0833,149.1833,24.16,78,19,6.72,AU,1723089980
398,praia da vitoria,38.7333,-27.0667,22.14,83,40,2.34,PT,1723089982
399,san fernando,15.0286,120.6898,32.85,62,94,5.56,PH,1723089988
400,tabou,4.423,-7.3528,23.37,80,100,3.49,CI,1723089988
401,nova sintra,14.8667,-24.7167,24.99,84,46,8.5,CV,1723089972
402,farah,32.5,62.5,31.5,10,0,1.21,AF,1723089988
403,baiti,13.745,-14.7482,23.73,97,100,2.49,SN,1723089988
404,lushun,38.8,121.2667,31.12,67,0,2.4,CN,1723089989
405,manado,1.487,124.8455,31.43,66,40,5.66,ID,1723089989
406,suva,-18.1416,178.4415,24.71,61,20,5.14,FJ,1723089964
407,vila do maio,15.1333,-23.2167,25.44,78,41,4.15,CV,1723089989
408,adligenswil,47.0652,8.3612,18.18,93,75,1.54,CH,1723089989
409,mwatate,-3.5029,38.3795,18.53,81,97,3.7,KE,1723089989
410,magadan,59.5667,150.8,14.88,76,20,3.36,RU,1723089989
411,nanga eboko,4.6833,12.3667,19.43,95,100,1.73,CM,1723089695
412,bom jardim,-7.7958,-35.5872,18.01,81,18,1.29,BR,1723089990
413,sao vicente,-23.9631,-46.3919,27.37,45,0,3.03,BR,1723089990
414,kulebaki,55.4133,42.5325,16.74,86,98,0.62,RU,1723089990
415,port douglas,-16.4833,145.4667,23.44,71,38,4.53,AU,1723089990
416,colares,38.7992,-9.4469,19.43,80,1,10.32,PT,1723089990
417,pasni,25.2631,63.471,28.0,77,99,0.73,PK,1723089990
418,pocone,-16.2567,-56.6228,24.57,33,0,2.77,BR,1723089990
419,tandil,-37.3217,-59.1332,5.38,94,100,7.14,AR,1723089506
420,kill devil hills,36.0307,-75.676,25.01,98,100,3.6,US,1723089964
421,rosoman,41.5161,21.9497,17.57,48,0,0.82,MK,1723089991
422,tongouson,5.0214,120.1328,28.02,73,100,2.87,PH,1723089991
423,camaqua,-30.8511,-51.8122,14.01,97,100,2.03,BR,1723089991
424,sumbawa besar,-8.5,117.4333,34.13,43,100,4.06,ID,1723089991
425,barra de santo antonio,-9.4047,-35.5072,20.6,80,8,3.52,BR,1723089991
426,kyzyl,51.7,94.45,23.58,36,78,1.41,RU,1723089991
427,vigan,17.5747,120.3869,28.85,85,94,6.89,PH,1723089991
428,san fernando de apure,7.8878,-67.4724,24.01,94,98,0.95,VE,1723089991
429,callao,-12.0667,-77.15,16.51,77,100,3.6,PE,1723089709
430,thunder bay,48.4001,-89.3168,16.99,94,100,3.6,CA,1723089989
431,amga,60.8953,131.9608,21.54,40,1,1.28,RU,1723089992
432,kuala tungkal,-0.8167,103.4667,31.53,54,89,1.93,ID,1723089992
433,presidente venceslau,-21.8761,-51.8439,20.81,38,0,1.99,BR,1723089992
434,solwezi,-12.1688,26.3894,11.76,46,13,1.84,ZM,1723089992
435,susuman,62.7833,148.1667,11.1,83,100,0.96,RU,1723089954
436,jincheng,35.5022,112.8328,27.37,76,93,3.02,CN,1723089992
437,pirallahi,40.4723,50.333,27.08,73,0,12.72,AZ,1723089992
438,ciudad constitucion,25.0369,-111.6644,27.97,62,46,5.46,MX,1723089992
439,floro,61.5996,5.0328,14.04,94,100,6.17,NO,1723089993
440,marka,1.7159,44.7717,24.73,82,70,5.36,SO,1723089993
441,archangelos,36.2149,28.1149,26.99,61,0,1.75,GR,1723089993
442,elkins,38.9259,-79.8467,22.39,90,0,1.34,US,1723089728
443,bodaybo,57.8506,114.1933,27.6,45,44,0.42,RU,1723089993
444,juye,35.3947,116.0883,31.52,72,56,0.63,CN,1723089993
445,ambon,-3.6954,128.1814,28.08,78,40,3.6,ID,1723089958
446,salekhard,66.53,66.6019,12.98,59,12,1.77,RU,1723089993
447,canutama,-6.5339,-64.3831,24.13,52,5,1.0,BR,1723089994
448,tetiiv,49.3767,29.6647,20.0,61,100,1.91,UA,1723089994
449,karratha,-20.7377,116.8463,27.28,24,12,3.09,AU,1723089963
450,monte argentario,42.4345,11.1195,24.31,88,37,2.05,IT,1723089994
451,santa rosa,14.3122,121.1114,30.61,81,68,6.98,PH,1723089994
452,san juan,-31.5375,-68.5364,4.8,66,91,7.43,AR,1723089994
453,esmeralda,21.8525,-78.1169,25.31,88,92,1.88,CU,1723089994
454,sao miguel do araguaia,-13.275,-50.1628,22.79,31,0,2.12,BR,1723089994
455,babolsar,36.7025,52.6576,26.18,74,98,5.73,IR,1723089994
456,shamakhi,40.6314,48.6414,23.66,59,55,0.81,AZ,1723089995
457,thurso,58.5927,-3.5259,12.7,81,58,8.18,GB,1723089995
458,colonia,50.9333,6.95,18.23,86,0,1.54,DE,1723089701
459,shetpe,44.1667,52.1167,27.6,40,8,12.05,KZ,1723089995
460,jorpeland,59.0225,6.0408,16.19,96,93,4.14,NO,1723089995
461,elliot lake,46.3834,-82.6331,12.89,61,94,0.9,CA,1723089995
462,mili,6.0815,171.735,27.68,71,100,0.83,MH,1723089995
463,revda,56.801,59.9303,11.7,93,80,3.23,RU,1723089995
464,alofi,-19.0595,-169.9187,22.94,68,75,6.69,NU,1723089963
465,ribeira brava,32.65,-17.0667,23.35,71,22,0.93,PT,1723089996
466,lata,40.1629,-8.3327,16.71,97,26,0.54,PT,1723089950
467,quartu sant'elena,39.2419,9.1839,25.58,41,0,1.79,IT,1723089996
468,richards bay,-28.783,32.0377,15.99,86,27,4.52,ZA,1723089822
469,tolanaro,-25.0319,46.9987,21.04,83,75,5.14,MG,1723089940
470,takoradi,4.8845,-1.7554,22.38,92,100,3.65,GH,1723089996
471,belmonte,-15.8631,-38.8828,22.48,67,60,1.8,BR,1723089996
472,bodo,67.28,14.405,19.41,72,0,9.26,NO,1723089996
473,guymon,36.6828,-101.4816,31.0,29,40,4.63,US,1723089997
474,timimoun,29.2639,0.231,33.21,16,0,8.23,DZ,1723089997
475,fray luis beltran,-39.3167,-65.7667,4.16,71,100,3.99,AR,1723089997
476,belyy yar,53.6039,91.3903,20.94,78,20,3.0,RU,1723089997
477,genlis,47.242,5.2242,18.96,88,0,2.06,FR,1723089997
478,kudahuvadhoo,2.6708,72.8944,26.82,79,100,4.64,MV,1723089981
479,nasir,15.5894,32.5634,27.56,68,92,4.46,SD,1723089999
480,glowno,51.9646,19.7157,18.88,90,100,2.6,PL,1723089999
481,pampierstad,-27.7832,24.6877,11.77,51,9,5.81,ZA,1723089999
482,dalandzadgad,43.5708,104.425,27.89,32,100,5.25,MN,1723089935
483,megion,61.0296,76.1136,13.01,59,100,5.54,RU,1723089937
484,bonthe,7.5264,-12.505,24.68,82,100,4.67,SL,1723089944
485,mezhdurechenskiy,59.6,65.9333,14.77,60,6,3.15,RU,1723090000
486,cold lake,54.4502,-110.2017,15.97,51,20,2.06,CA,1723090000
487,bougouni,11.417,-7.479,23.1,95,99,2.34,ML,1723090000
488,paphos,34.7667,32.4167,23.88,46,20,3.09,CY,1723089647
489,chengde,40.9725,117.9361,29.94,59,100,1.6,CN,1723090000
490,odessa,46.4775,30.7326,23.6,53,9,2.41,UA,1723089811
491,gediz,39.0417,29.41,16.25,72,0,2.87,TR,1723090000
492,timbuktu,16.7735,-3.0074,30.17,62,100,10.13,ML,1723090001
493,tinogasta,-28.0632,-67.5649,4.25,71,87,1.07,AR,1723090001
494,eastham,41.8301,-69.9739,17.75,92,100,2.74,US,1723090001
495,nova vicosa,-17.8919,-39.3719,21.16,73,0,2.97,BR,1723089935
496,las palmas,28.4204,-14.0131,21.44,78,100,7.72,ES,1723090001
497,ulladulla,-35.35,150.4667,19.87,49,5,6.63,AU,1723089961
498,ola,59.5833,151.2833,14.29,79,44,3.67,RU,1723089944
499,tanumah,27.1,44.1333,30.87,11,71,4.12,SA,1723090001
500,hadibu,12.65,54.0333,25.79,84,55,8.56,YE,1723090002
501,rio grande,-32.035,-52.0986,13.3,91,71,3.4,BR,1723090002
502,hajin,34.6927,40.827,30.32,34,0,6.71,SY,1723090002
503,alo,6.5486,4.2686,23.79,86,99,3.65,NG,1723090002
504,kovdor,67.5662,30.4758,12.99,50,6,1.57,RU,1723089944
505,ostersund,63.1792,14.6357,16.45,100,100,5.66,SE,1723090002
506,noshiro,40.2039,140.0242,26.64,65,35,3.19,JP,1723090002
507,lerwick,60.1545,-1.1494,12.0,89,95,12.71,GB,1723089961
508,barbacoas,1.6715,-78.1398,23.98,95,100,0.21,CO,1723090003
509,birobidzhan,48.8,132.95,26.0,75,91,0.44,RU,1723090003
510,nema,57.5067,50.5011,15.68,94,78,3.2,RU,1723089985
511,acapulco de juarez,16.8634,-99.8901,29.9,74,75,5.14,MX,1723090003
512,prince rupert,54.3161,-130.3201,14.99,93,32,1.17,CA,1723090003
513,gebeit,21.0667,36.3167,26.1,67,15,2.85,SD,1723090003
514,novodvinsk,64.4165,40.8122,11.86,58,7,1.73,RU,1723090003
515,puerto morazan,12.8504,-87.1717,25.25,92,96,0.68,NI,1723090003
516,shanhaiguan,39.9988,119.7564,30.12,69,76,2.41,CN,1723090004
517,birao,10.2849,22.7882,21.95,96,100,1.48,CF,1723090004
518,oranjemund,-28.55,16.4333,10.19,86,0,2.98,NA,1723090004
519,tarnogskiy gorodok,60.4997,43.5761,12.94,90,100,2.02,RU,1723090004
520,ebon,4.582,168.6964,27.35,75,100,1.55,MH,1723089974
521,isangel,-19.55,169.2667,26.06,53,75,3.09,VU,1723090004
522,talakan,50.3167,130.3667,24.64,78,26,3.06,RU,1723090004
523,mana,5.6592,-53.7767,24.84,91,68,3.57,GF,1723089963
524,sao lourenco do sul,-31.3653,-51.9783,13.73,93,100,2.43,BR,1723090005
525,uromi,6.7,6.3333,19.56,98,78,1.41,NG,1723090005
526,boca suno,-0.7167,-77.1333,23.49,81,37,0.86,EC,1723090005
527,kincardine,56.0667,-3.7167,13.88,85,100,4.41,GB,1723090005
528,ciudad lazaro cardenas,17.9583,-102.2,27.86,81,100,2.84,MX,1723090005
529,tralee,52.2704,-9.7026,14.72,96,97,1.8,IE,1723090005
530,santa luzia,-19.7697,-43.8514,19.5,74,0,1.55,BR,1723089964
531,maloye ganyushkino,46.6,49.2667,29.45,33,66,3.33,KZ,1723090006
532,margate,51.3813,1.3862,14.94,86,33,4.67,GB,1723089705
533,sungai raya,0.7,108.9,32.12,57,17,1.37,ID,1723090006
534,kievka,50.2619,71.5514,25.18,50,43,1.47,KZ,1723090006
535,las khorey,11.1595,48.1967,31.49,58,6,2.68,SO,1723090006
536,mizan teferi,6.9833,35.5833,17.18,85,64,1.08,ET,1723090006
537,yemva,62.59,50.8594,14.87,53,0,2.97,RU,1723089952
538,bethanie,-26.4833,17.15,8.97,32,7,2.55,NA,1723090007
539,plastun,44.7561,136.2939,27.07,64,44,2.46,RU,1723089987
540,aleksandrow lodzki,51.8196,19.3038,18.42,76,0,1.03,PL,1723090007
541,kutum,14.2,24.6667,20.81,87,100,4.03,SD,1723090007
542,ingeniero guillermo n. juarez,-23.9,-61.85,11.92,63,10,3.33,AR,1723090007
543,dul'durga,50.6761,113.5931,25.32,43,89,1.43,RU,1723090007
544,koudougou,12.25,-2.3667,23.86,92,100,6.32,BF,1723090007
545,karlskrona,56.1616,15.5866,17.25,89,86,3.8,SE,1723090008
546,tromso,69.6496,18.957,17.01,59,0,1.54,NO,1723089957
547,saint joseph,39.7686,-94.8466,22.36,83,0,3.74,US,1723089882
548,shar,49.5886,81.0453,31.34,24,98,5.82,KZ,1723090008
549,sillanwali,31.8261,72.5398,31.84,66,87,3.58,PK,1723090008
550,tra mhor,52.1624,-7.1524,15.96,81,99,4.02,IE,1723090008
551,tantou,26.0314,119.5986,33.13,62,79,2.73,CN,1723090008
552,selebi-phikwe,-21.979,27.8498,11.69,90,0,2.38,BW,1723090009
